{
"type": "FeatureCollection",
"name": "Underground Facilities",
"crs": { "type": "name", "properties": { "name": "urn:ogc:def:crs:OGC:1.3:CRS84" } },
"features": [
{ "type": "Feature", "properties": { "Name": "Baker aka Beacon, CA", "description": "<img src=\"https:\/\/lh3.googleusercontent.com\/umsh\/AOq6mzqU3TLJV8p0AiduPso8MFgQOPsc4mbKBMHlhpLNB8UEFTvZjlTtowjA1qTPZgohXj9qchJVnyC_bPk3x7AcigW5o5BVUBLxRhJubXGVn36_sBdi_iAb7v4v5rDt4dnfNINBD9zOhfKsVPCs4XE8Ieaj46cKSNY7M1Tv3gtzsJAiXPP1Do-BVWpq4Ks-46QAIWTtqQ2GaWsNB383tqwdQI9MC3gqpFyU3uztcR2fGd9hhO62mENCFG-wHBmjGiVcsDMVPQCZATJtLlOa_2coSiW1vfviM6yAW9DMtsu2ovtGfBltXIJZgJI2fn6evUuQFu2K--D1b-yieN8zEz1DyzTJw7q7SxT6HT7uAJP0dV855Df85oiN8V7jV_2tX4tnHUZdGRGspcRdfcwzWF_UajFu7Zo4mKEOFgy-asGT0hP8XcBGQQ65KR5W2XffNo2Y2M7X3zsOWUVJC2zdbUAKXUExYc_FPPepXLSyJ6bVZKdOjConZR2UpvyueIZgeGFG2uY99TKH3b-dCqPnWWrwsgFSTuMg7QdoB_wQxnnxdoNhjsxO1V7ys53KSegqgtCx_SSTKZsf7HhgXcLrZc6Dne6knx_gRf5bgwVHm91saiSOq0PL_EWbzXyYuIrwq4V65XzoUOIY1MH3L6Slsv6gqOSryxszROLa2vHb4khJJnPymw69XUWpGJdPtEQ\" height=\"200\" width=\"auto\" \/><br><br>https:\/\/web.archive.org\/web\/20080321083925\/http:\/\/www.coldwarcomms.org\/l5\/baker\/baker.html", "gx_media_links": "https:\/\/lh3.googleusercontent.com\/umsh\/AOq6mzqU3TLJV8p0AiduPso8MFgQOPsc4mbKBMHlhpLNB8UEFTvZjlTtowjA1qTPZgohXj9qchJVnyC_bPk3x7AcigW5o5BVUBLxRhJubXGVn36_sBdi_iAb7v4v5rDt4dnfNINBD9zOhfKsVPCs4XE8Ieaj46cKSNY7M1Tv3gtzsJAiXPP1Do-BVWpq4Ks-46QAIWTtqQ2GaWsNB383tqwdQI9MC3gqpFyU3uztcR2fGd9hhO62mENCFG-wHBmjGiVcsDMVPQCZATJtLlOa_2coSiW1vfviM6yAW9DMtsu2ovtGfBltXIJZgJI2fn6evUuQFu2K--D1b-yieN8zEz1DyzTJw7q7SxT6HT7uAJP0dV855Df85oiN8V7jV_2tX4tnHUZdGRGspcRdfcwzWF_UajFu7Zo4mKEOFgy-asGT0hP8XcBGQQ65KR5W2XffNo2Y2M7X3zsOWUVJC2zdbUAKXUExYc_FPPepXLSyJ6bVZKdOjConZR2UpvyueIZgeGFG2uY99TKH3b-dCqPnWWrwsgFSTuMg7QdoB_wQxnnxdoNhjsxO1V7ys53KSegqgtCx_SSTKZsf7HhgXcLrZc6Dne6knx_gRf5bgwVHm91saiSOq0PL_EWbzXyYuIrwq4V65XzoUOIY1MH3L6Slsv6gqOSryxszROLa2vHb4khJJnPymw69XUWpGJdPtEQ" }, "geometry": { "type": "Point", "coordinates": [ -116.214296, 35.135179 ] } },
{ "type": "Feature", "properties": { "Name": "Mojave Autovon", "description": null, "gx_media_links": null }, "geometry": { "type": "Point", "coordinates": [ -118.021217, 35.023026 ] } },
{ "type": "Feature", "properties": { "Name": "Airmont, NY", "description": "http:\/\/www.coldwarcomms.org\/l5\/airmont\/airmont.html", "gx_media_links": null }, "geometry": { "type": "Point", "coordinates": [ -74.111247, 41.099184 ] } },
{ "type": "Feature", "properties": { "Name": "CedarBrook, NJ", "description": "http:\/\/www.coldwarcomms.org\/l5\/cedarbrook\/cedarbrook.html", "gx_media_links": null }, "geometry": { "type": "Point", "coordinates": [ -74.913794, 39.745475 ] } },
{ "type": "Feature", "properties": { "Name": "Cherryville, NJ", "description": "http:\/\/www.coldwarcomms.org\/l5\/cherryville\/cherryville.html", "gx_media_links": null }, "geometry": { "type": "Point", "coordinates": [ -74.905555, 40.572393 ] } },
{ "type": "Feature", "properties": { "Name": "Finland, PA", "description": "<img src=\"https:\/\/lh3.googleusercontent.com\/umsh\/AOq6mzr5ey6JSy6w9MFS6BhQLCOK4QS35Gg-qk4hs1JlMXYLSoTNaoDafNwZ2gv7AKiKtLIKyyMaL-tihWjcMSFhoIrWE5oWHZ1ItVZ2L8PY25eoTgLyPPIiJLHmMt8_4KRiSZjmGWDiajA7POSJi2Ws_rKDnAIDoowGZR84WxumfQ748ygGTkwAPeuwdXdicyibgXkiLwfwHOHRx6MDEtHKyvGV11S8cJLgpRUOOFjQhxc8oORX7D7zr0R9yXUDq3nF5HFGesS0sQxUoGHAr61q8KjEzr_UxzvqbxeO0JJeXPRM4wTvkATirGvwsL-hUBKL9PhX8OANg0jsToUzbQ8mlCS8VDMmghdNFkI6ny6w05ZZag6nLcyBYc3_as_rRr0csfseVdcDVnUaeaMkUJjTEI1ktsbfpMnv8QjndRGOCoqvhxXd_P94qyJ6bLiHxdXSShWUq1-Z-vYmBS8iPUalz0s55jYh3AMkiZTsRSd0GmIIXRnKMh_PPGrxQt9n-Znex8M5tTCb572fRoGmcaFennmYJId0NsEHZbJOZFaBX2FkU1TqAjSUfxuCQsAK15f1B4smvm7M_7eRnTDEN4TcwWBTlZj2TEpYcKVtvbuyhF3itxI83YCS0Zj2y4HcGe7_GMbSdtkXfpHar4JoAlzvbS7iGX--XP-as24hNkhMbXC1wUEWFg7k1AYNnQ\" height=\"200\" width=\"auto\" \/><br><br>http:\/\/www.coldwarcomms.org\/l5\/finland\/finland.html", "gx_media_links": "https:\/\/lh3.googleusercontent.com\/umsh\/AOq6mzr5ey6JSy6w9MFS6BhQLCOK4QS35Gg-qk4hs1JlMXYLSoTNaoDafNwZ2gv7AKiKtLIKyyMaL-tihWjcMSFhoIrWE5oWHZ1ItVZ2L8PY25eoTgLyPPIiJLHmMt8_4KRiSZjmGWDiajA7POSJi2Ws_rKDnAIDoowGZR84WxumfQ748ygGTkwAPeuwdXdicyibgXkiLwfwHOHRx6MDEtHKyvGV11S8cJLgpRUOOFjQhxc8oORX7D7zr0R9yXUDq3nF5HFGesS0sQxUoGHAr61q8KjEzr_UxzvqbxeO0JJeXPRM4wTvkATirGvwsL-hUBKL9PhX8OANg0jsToUzbQ8mlCS8VDMmghdNFkI6ny6w05ZZag6nLcyBYc3_as_rRr0csfseVdcDVnUaeaMkUJjTEI1ktsbfpMnv8QjndRGOCoqvhxXd_P94qyJ6bLiHxdXSShWUq1-Z-vYmBS8iPUalz0s55jYh3AMkiZTsRSd0GmIIXRnKMh_PPGrxQt9n-Znex8M5tTCb572fRoGmcaFennmYJId0NsEHZbJOZFaBX2FkU1TqAjSUfxuCQsAK15f1B4smvm7M_7eRnTDEN4TcwWBTlZj2TEpYcKVtvbuyhF3itxI83YCS0Zj2y4HcGe7_GMbSdtkXfpHar4JoAlzvbS7iGX--XP-as24hNkhMbXC1wUEWFg7k1AYNnQ" }, "geometry": { "type": "Point", "coordinates": [ -75.436494, 40.393493 ] } },
{ "type": "Feature", "properties": { "Name": "Laurelton, PA", "description": "http:\/\/www.coldwarcomms.org\/l5\/laurelton\/laurelton.html", "gx_media_links": null }, "geometry": { "type": "Point", "coordinates": [ -77.210861, 40.888523 ] } },
{ "type": "Feature", "properties": { "Name": "Lilyville, PA", "description": "http:\/\/www.coldwarcomms.org\/l5\/lillyville\/lillyville.html", "gx_media_links": null }, "geometry": { "type": "Point", "coordinates": [ -80.221756, 40.845497 ] } },
{ "type": "Feature", "properties": { "Name": "Morgantown, IN", "description": "http:\/\/www.coldwarcomms.org\/l5\/morgantown\/morgantown.html", "gx_media_links": null }, "geometry": { "type": "Point", "coordinates": [ -86.251172, 39.404962 ] } },
{ "type": "Feature", "properties": { "Name": "Pottstown, PA", "description": "http:\/\/www.coldwarcomms.org\/l5\/pottstown\/pottstown.html", "gx_media_links": null }, "geometry": { "type": "Point", "coordinates": [ -75.611032, 40.242119 ] } },
{ "type": "Feature", "properties": { "Name": "Tully, NY", "description": "http:\/\/www.coldwarcomms.org\/l5\/tully\/tully.html", "gx_media_links": null }, "geometry": { "type": "Point", "coordinates": [ -76.109871, 42.845402 ] } },
{ "type": "Feature", "properties": { "Name": "Xenia, OH", "description": "http:\/\/www.coldwarcomms.org\/l5\/xenia\/xenia.html", "gx_media_links": null }, "geometry": { "type": "Point", "coordinates": [ -83.842488, 39.579242 ] } },
{ "type": "Feature", "properties": { "Name": "Chesterfield, MA", "description": "https:\/\/web.archive.org\/web\/20020204032831\/http:\/\/www1.shore.net\/~mfoster\/Chesterfield.htm", "gx_media_links": null }, "geometry": { "type": "Point", "coordinates": [ -72.799738, 42.368034 ] } },
{ "type": "Feature", "properties": { "Name": "The Notch, MA", "description": "<img src=\"https:\/\/lh3.googleusercontent.com\/umsh\/AOq6mzo5Ff9uL6Csb5crAPX-qZIBvA_J9fchIc8wS2OHVK3Io95P4t6fIHmxTdmWvnYkKVzjPGOCodwnxd0EY31I_05FSDb0ZOKZnk938Pi3qpvh8ERMZMio7EzRvc1A7rzwMoAsPNb2saiIXTsryaagP1xZThuHg7AAYr6E6THU9BjEewTM_vD-Pom4MPFWu6aL0N4UU3jvDcWKHrAFg-aSmP8XkRr3tCC6HabXPkjK3CdXCTEQL1hdR1HU9BaF-Wx38kp3pQoECtSakYSVOQ7ah1Cbjlnk5qtBY4x2oGYUQGTZ39nehoCFc7klk3BJ_CNSOdLPG8sO4Rncshq67qR6VNEVi3VJZUbZpZaw5C5MO5Fk6l-sP5fkRaRSC63ciBtA_H_MTV0AeAY_Z-NWdGjYYBQ7p_WgE7vT6i82ML-4C8EjlrV_wxo6BV7xKBwvORNLDLxDucAx2m_yGTAUcn4KTu0AsRTfQnF8BFnVdQVGQ7ytHKT7iR3OVyXMICYBBhmcczJw1K2Wkad3_2YJVXxf_BceoTkcfU6Oqwo0sTunQDg9D0a_TB-HRGJ1hTT_DkmxsKO_de-PvKzTBcekhFaCCF_db7FggIVaUi845-X13E2O2rnsaqtTc5nuf1HJ9gDWgk7emKFx3f0woGy9FZ9nU5uv3UlGnw4hm5sg8KiZhfqnscXwww8GreuenhI\" height=\"200\" width=\"auto\" \/><br><br>https:\/\/web.archive.org\/web\/20020227215338\/http:\/\/users.shore.net\/~mfoster\/PACCS.htm", "gx_media_links": "https:\/\/lh3.googleusercontent.com\/umsh\/AOq6mzo5Ff9uL6Csb5crAPX-qZIBvA_J9fchIc8wS2OHVK3Io95P4t6fIHmxTdmWvnYkKVzjPGOCodwnxd0EY31I_05FSDb0ZOKZnk938Pi3qpvh8ERMZMio7EzRvc1A7rzwMoAsPNb2saiIXTsryaagP1xZThuHg7AAYr6E6THU9BjEewTM_vD-Pom4MPFWu6aL0N4UU3jvDcWKHrAFg-aSmP8XkRr3tCC6HabXPkjK3CdXCTEQL1hdR1HU9BaF-Wx38kp3pQoECtSakYSVOQ7ah1Cbjlnk5qtBY4x2oGYUQGTZ39nehoCFc7klk3BJ_CNSOdLPG8sO4Rncshq67qR6VNEVi3VJZUbZpZaw5C5MO5Fk6l-sP5fkRaRSC63ciBtA_H_MTV0AeAY_Z-NWdGjYYBQ7p_WgE7vT6i82ML-4C8EjlrV_wxo6BV7xKBwvORNLDLxDucAx2m_yGTAUcn4KTu0AsRTfQnF8BFnVdQVGQ7ytHKT7iR3OVyXMICYBBhmcczJw1K2Wkad3_2YJVXxf_BceoTkcfU6Oqwo0sTunQDg9D0a_TB-HRGJ1hTT_DkmxsKO_de-PvKzTBcekhFaCCF_db7FggIVaUi845-X13E2O2rnsaqtTc5nuf1HJ9gDWgk7emKFx3f0woGy9FZ9nU5uv3UlGnw4hm5sg8KiZhfqnscXwww8GreuenhI" }, "geometry": { "type": "Point", "coordinates": [ -72.535277, 42.306878 ] } },
{ "type": "Feature", "properties": { "Name": "MSLYVAMO", "description": null, "gx_media_links": null }, "geometry": { "type": "Point", "coordinates": [ -77.783473, 37.403449 ] } },
{ "type": "Feature", "properties": { "Name": "Brigham City, UT", "description": null, "gx_media_links": null }, "geometry": { "type": "Point", "coordinates": [ -112.013441, 41.541609 ] } },
{ "type": "Feature", "properties": { "Name": "GNHLRI10", "description": "https:\/\/web.archive.org\/web\/20020417033458\/http:\/\/users.shore.net\/~mfoster\/Greenhill.htm", "gx_media_links": null }, "geometry": { "type": "Point", "coordinates": [ -71.605002, 41.403692 ] } },
{ "type": "Feature", "properties": { "Name": "Medina, OH", "description": "https:\/\/web.archive.org\/web\/20030802160410\/http:\/\/www.panix.com\/~wb8foz\/Medina\/", "gx_media_links": null }, "geometry": { "type": "Point", "coordinates": [ -81.812709, 41.170656 ] } },
{ "type": "Feature", "properties": { "Name": "Littleton, MA", "description": null, "gx_media_links": null }, "geometry": { "type": "Point", "coordinates": [ -71.462287, 42.525212 ] } },
{ "type": "Feature", "properties": { "Name": "Williamstown, KY", "description": null, "gx_media_links": null }, "geometry": { "type": "Point", "coordinates": [ -84.552858, 38.632362 ] } },
{ "type": "Feature", "properties": { "Name": "Fairview, KS", "description": null, "gx_media_links": null }, "geometry": { "type": "Point", "coordinates": [ -95.733488, 39.75919 ] } },
{ "type": "Feature", "properties": { "Name": "Blackstone, MA", "description": null, "gx_media_links": null }, "geometry": { "type": "Point", "coordinates": [ -71.553401, 42.061697 ] } },
{ "type": "Feature", "properties": { "Name": "San Luis Obispo Junciton, Ca", "description": "<img src=\"https:\/\/lh3.googleusercontent.com\/umsh\/AOq6mzpALJFpZQ0JI0udIngMToB8baaYH6DAJmhzvRVcZAvcWGTu2Wr-M1yIaFbG7NZmSNaonBqD6biZhHEYZMYbHXKv6j-AA5ln8yjM0cfuMfUNCqGHno06HcYnNPtTcH8eVwu1ovOO5AHM1pAA_37s20vzvXKb9BJ8r9RcMKE9nS221Xgx-T9AIUwHG74ABELsq6JBlyd2nWJzuzZAAzjS_xWOISSPn39_bmPcXedngHoYu6QxHd10_7Xi-gM_sR5319ZVx-l-dEQiGFqQFtpMgXgvr5tsc_7yjugnLHzOhZfn9MRBjVw6TyuDcWYjIKiCkSEhbygYG7cwlM2gLUAQszTesb25Lt7ZpsKGKHLVX0GH5CO-ek2RGsLrotqaRrM3DmgBJGy5XMhYpkXnu-DH6rpRRy05LY2OaJ4-eHJgRV-Plbhyqtvaxc1oTJ2jAPpQdOSOU-ENnfCjKyQ6jTZ8DZO_fUekMfxE04HfAEjAvLyyw0ubv6w_0me4TZfZWJlAAqbAAQB_CSFmEAQD1hFFszivWcsgWgk6jwG7VrjLp3Mli-VHPdol-xv2kzExhi_fxT-OBAjTxlriYeXvPYSgVY_xApDMLKQfNuD4fEjQeUjc_PvLAojW9OkLpMxxKjWE2NV_WtH42OEb8Axrh96EK5t-72FmBX9HE7isXrjxeK0GUPjYROxsCC2n-OU\" height=\"200\" width=\"auto\" \/><br><br>Landing point for the Hawaii  Telephone Cable, https:\/\/web.archive.org\/web\/20020422123244\/http:\/\/www1.shore.net\/~mfoster\/SLO_JCT.html", "gx_media_links": "https:\/\/lh3.googleusercontent.com\/umsh\/AOq6mzpALJFpZQ0JI0udIngMToB8baaYH6DAJmhzvRVcZAvcWGTu2Wr-M1yIaFbG7NZmSNaonBqD6biZhHEYZMYbHXKv6j-AA5ln8yjM0cfuMfUNCqGHno06HcYnNPtTcH8eVwu1ovOO5AHM1pAA_37s20vzvXKb9BJ8r9RcMKE9nS221Xgx-T9AIUwHG74ABELsq6JBlyd2nWJzuzZAAzjS_xWOISSPn39_bmPcXedngHoYu6QxHd10_7Xi-gM_sR5319ZVx-l-dEQiGFqQFtpMgXgvr5tsc_7yjugnLHzOhZfn9MRBjVw6TyuDcWYjIKiCkSEhbygYG7cwlM2gLUAQszTesb25Lt7ZpsKGKHLVX0GH5CO-ek2RGsLrotqaRrM3DmgBJGy5XMhYpkXnu-DH6rpRRy05LY2OaJ4-eHJgRV-Plbhyqtvaxc1oTJ2jAPpQdOSOU-ENnfCjKyQ6jTZ8DZO_fUekMfxE04HfAEjAvLyyw0ubv6w_0me4TZfZWJlAAqbAAQB_CSFmEAQD1hFFszivWcsgWgk6jwG7VrjLp3Mli-VHPdol-xv2kzExhi_fxT-OBAjTxlriYeXvPYSgVY_xApDMLKQfNuD4fEjQeUjc_PvLAojW9OkLpMxxKjWE2NV_WtH42OEb8Axrh96EK5t-72FmBX9HE7isXrjxeK0GUPjYROxsCC2n-OU" }, "geometry": { "type": "Point", "coordinates": [ -120.719147, 35.27773 ] } },
{ "type": "Feature", "properties": { "Name": "Lamar, CO", "description": null, "gx_media_links": null }, "geometry": { "type": "Point", "coordinates": [ -102.609283, 37.923954 ] } },
{ "type": "Feature", "properties": { "Name": "Cheshire, CT", "description": "https:\/\/web.archive.org\/web\/20020606113555\/http:\/\/www1.shore.net\/~mfoster\/Cheshire.htm", "gx_media_links": null }, "geometry": { "type": "Point", "coordinates": [ -72.928922, 41.488152 ] } },
{ "type": "Feature", "properties": { "Name": "Ellisville, FL", "description": null, "gx_media_links": null }, "geometry": { "type": "Point", "coordinates": [ -82.556984, 29.94924 ] } },
{ "type": "Feature", "properties": { "Name": "Polk City, FL", "description": null, "gx_media_links": null }, "geometry": { "type": "Point", "coordinates": [ -81.8337287, 28.2946927 ] } },
{ "type": "Feature", "properties": { "Name": "Boone, IA", "description": null, "gx_media_links": null }, "geometry": { "type": "Point", "coordinates": [ -93.794014, 42.165618 ] } }
]
}
